[
      {
        "geometry": {
          "type": "Point",
          "coordinates": [
            -71.032,
            42.345182
          ]
        },
        "type": "Feature",
        "properties": {
          "area": "boston",
          "lines": [
            "silver",
            "sl2"
          ],
          "id": "northern-ave-amp-tide-st",
          "name": "Northern Ave. &amp; Tide St."
        }
      },
      {
        "geometry": {
          "type": "Point",
          "coordinates": [
            -71.022476,
            42.379759
          ]
        },
        "type": "Feature",
        "properties": {
          "area": "boston",
          "lines": [
            "blue"
          ],
          "id": "wood-island",
          "name": "Wood Island",
          "childrens":["Orient Heights", "Airport"]
        }
      },
      {
        "geometry": {
          "type": "Point",
          "coordinates": [
            -71.116759,
            42.343366
          ]
        },
        "type": "Feature",
        "properties": {
          "area": "brookline",
          "lines": [
            "green",
            "green-c",
            "green-b"
          ],
          "id": "saint-paul-st",
          "name": "Saint Paul St"
        }
      },
      {
        "geometry": {
          "type": "Point",
          "coordinates": [
            -71.075724,
            42.347314
          ]
        },
        "type": "Feature",
        "properties": {
          "area": "boston",
          "lines": [
            "orange"
          ],
          "id": "back-bay",
          "name": "Back Bay",
          "childrens": ["Ruggles", "Tufts Medical Center"]
        }
      },
      {
        "geometry": {
          "type": "Point",
          "coordinates": [
            -71.070493,
            42.361279
          ]
        },
        "type": "Feature",
        "properties": {
          "area": "boston",
          "lines": [
            "red"
          ],
          "id": "charlesmgh",
          "name": "Charles/MGH",
          "childrens": ["Kendall/MIT", "Park St"]
        }
      },
      {
        "geometry": {
          "type": "Point",
          "coordinates": [
            -71.034448,
            42.344579
          ]
        },
        "type": "Feature",
        "properties": {
          "area": "boston",
          "lines": [
            "silver",
            "sl2"
          ],
          "id": "dry-dock-ave-amp-design-center-place",
          "name": "Dry Dock Ave. &amp; Design Center Place"
        }
      },
      {
        "geometry": {
          "type": "Point",
          "coordinates": [
            -71.057117,
            42.342793
          ]
        },
        "type": "Feature",
        "properties": {
          "area": "boston",
          "lines": [
            "red"
          ],
          "id": "broadway",
          "name": "Broadway",
          "childrens": ["South Station", "Andrew"]
        }
      },
      {
        "geometry": {
          "type": "Point",
          "coordinates": [
            -71.007034,
            42.232848
          ]
        },
        "type": "Feature",
        "properties": {
          "area": "quincy",
          "lines": [
            "red"
          ],
          "id": "quincy-adams",
          "name": "Quincy Adams",
          "childrens": ["Quincy Center", "Braintree"]
        }
      },
      {
        "geometry": {
          "type": "Point",
          "coordinates": [
            -71.047514,
            42.352724
          ]
        },
        "type": "Feature",
        "properties": {
          "area": "boston",
          "lines": [
            "silver",
            "sl2",
            "sl1"
          ],
          "id": "courthouse",
          "name": "Courthouse"
        }
      },
      {
        "geometry": {
          "type": "Point",
          "coordinates": [
            -71.099787,
            42.322893
          ]
        },
        "type": "Feature",
        "properties": {
          "area": "boston",
          "lines": [
            "orange"
          ],
          "id": "jackson-square",
          "name": "Jackson Square",
          "childrens": ["Stony Brook", "Roxbury Crossing"]
        }
      },
      {
        "geometry": {
          "type": "Point",
          "coordinates": [
            -71.124702,
            42.351833
          ]
        },
        "type": "Feature",
        "properties": {
          "area": "boston",
          "lines": [
            "green",
            "green-b"
          ],
          "id": "packards-corner",
          "name": "Packards Corner"
        }
      },
      {
        "geometry": {
          "type": "Point",
          "coordinates": [
            -71.034119,
            42.343927
          ]
        },
        "type": "Feature",
        "properties": {
          "area": "boston",
          "lines": [
            "silver",
            "sl2"
          ],
          "id": "black-falcon-ave-amp-design-center-place",
          "name": "Black Falcon Ave. &amp; Design Center Place"
        }
      },
      {
        "geometry": {
          "type": "Point",
          "coordinates": [
            -71.063229,
            42.284219
          ]
        },
        "type": "Feature",
        "properties": {
          "area": "boston",
          "lines": [
            "red"
          ],
          "id": "ashmont",
          "name": "Ashmont",
          "childrens": ["Shawmut"]
        }
      },
      {
        "geometry": {
          "type": "Point",
          "coordinates": [
            -71.142449,
            42.395261
          ]
        },
        "type": "Feature",
        "properties": {
          "area": "cambridge",
          "lines": [
            "red"
          ],
          "id": "alewife",
          "name": "Alewife",
          "childrens": ["Davis"]
        }
      },
      {
        "geometry": {
          "type": "Point",
          "coordinates": [
            -71.039287,
            42.347928
          ]
        },
        "type": "Feature",
        "properties": {
          "area": "boston",
          "lines": [
            "silver",
            "sl2",
            "sl1"
          ],
          "id": "silver-line-way",
          "name": "Silver Line Way"
        }
      },
      {
        "geometry": {
          "type": "Point",
          "coordinates": [
            -71.113377,
            42.300023
          ]
        },
        "type": "Feature",
        "properties": {
          "area": "jamaica-plain",
          "lines": [
            "orange"
          ],
          "id": "forest-hills",
          "name": "Forest Hills",
          "childrens": ["Green Street"]
        }
      },
      {
        "geometry": {
          "type": "Point",
          "coordinates": [
            -71.028456,
            42.344681
          ]
        },
        "type": "Feature",
        "properties": {
          "area": "boston",
          "lines": [
            "silver",
            "sl2"
          ],
          "id": "25-dry-dock-ave",
          "name": "25 Dry Dock Ave."
        }
      },
      {
        "geometry": {
          "type": "Point",
          "coordinates": [
            -71.100235,
            42.349126
          ]
        },
        "type": "Feature",
        "properties": {
          "area": "boston",
          "lines": [
            "green",
            "green-b"
          ],
          "id": "blandford-st",
          "name": "Blandford St"
        }
      },
      {
        "geometry": {
          "type": "Point",
          "coordinates": [
            -71.029307,
            42.274957
          ]
        },
        "type": "Feature",
        "properties": {
          "area": "quincy",
          "lines": [
            "red"
          ],
          "id": "north-quincy",
          "name": "North Quincy",
          "childrens": ["JFK/UMass", "Wollaston"]
        }
      },
      {
        "geometry": {
          "type": "Point",
          "coordinates": [
            -71.135387,
            42.339258
          ]
        },
        "type": "Feature",
        "properties": {
          "area": "brookline",
          "lines": [
            "green",
            "green-c"
          ],
          "id": "washington-sq",
          "name": "Washington Sq"
        }
      },
      {
        "geometry": {
          "type": "Point",
          "coordinates": [
            -71.076593,
            42.370774
          ]
        },
        "type": "Feature",
        "properties": {
          "area": "cambridge",
          "lines": [
            "green-e",
            "green-d",
            "green"
          ],
          "id": "lechmere",
          "name": "Lechmere",
          "childrens": ["Science Park"]
        }
      },
      {
        "geometry": {
          "type": "Point",
          "coordinates": [
            -71.07052,
            42.372593
          ]
        },
        "type": "Feature",
        "properties": {
          "area": "boston",
          "lines": [
            "orange"
          ],
          "id": "community-college",
          "name": "Community College",
          "childrens": ["North Station", "Sullivan Square"]
        }
      },
      {
        "geometry": {
          "type": "Point",
          "coordinates": [
            -71.057922,
            42.363222
          ]
        },
        "type": "Feature",
        "properties": {
          "area": "boston",
          "lines": [
            "green-e",
            "green-d",
            "green",
            "green-c",
            "orange"
          ],
          "id": "haymarket",
          "name": "Haymarket",
          "childrens": ["State", "North Station", "Government Center"]
        }
      },
      {
        "geometry": {
          "type": "Point",
          "coordinates": [
            -71.06955,
            42.34136
          ]
        },
        "type": "Feature",
        "properties": {
          "area": "boston",
          "lines": [
            "sl4",
            "sl5",
            "silver"
          ],
          "id": "union-park-st",
          "name": "Union Park St"
        }
      },
      {
        "geometry": {
          "type": "Point",
          "coordinates": [
            -71.129327,
            42.339683
          ]
        },
        "type": "Feature",
        "properties": {
          "area": "brookline",
          "lines": [
            "green",
            "green-c"
          ],
          "id": "brandon-hall",
          "name": "Brandon Hall"
        }
      },
      {
        "geometry": {
          "type": "Point",
          "coordinates": [
            -71.062129,
            42.361457
          ]
        },
        "type": "Feature",
        "properties": {
          "area": "boston",
          "lines": [
            "blue"
          ],
          "id": "bowdoin",
          "name": "Bowdoin",
          "childrens": ["Government Center"]
        }
      },
      {
        "geometry": {
          "type": "Point",
          "coordinates": [
            -71.141549,
            42.337847
          ]
        },
        "type": "Feature",
        "properties": {
          "area": "brookline",
          "lines": [
            "green",
            "green-c"
          ],
          "id": "dean-rd",
          "name": "Dean Rd"
        }
      },
      {
        "geometry": {
          "type": "Point",
          "coordinates": [
            -71.081205,
            42.332709
          ]
        },
        "type": "Feature",
        "properties": {
          "area": "boston",
          "lines": [
            "sl4",
            "sl5",
            "silver"
          ],
          "id": "melnea-cass-blvd",
          "name": "Melnea Cass Blvd"
        }
      },
      {
        "geometry": {
          "type": "Point",
          "coordinates": [
            -71.077056,
            42.383434
          ]
        },
        "type": "Feature",
        "properties": {
          "area": "charlestown",
          "lines": [
            "orange"
          ],
          "id": "sullivan-square",
          "name": "Sullivan Square",
          "childrens": ["Wellington", "Community College"]
        }
      },
      {
        "geometry": {
          "type": "Point",
          "coordinates": [
            -71.053175,
            42.311099
          ]
        },
        "type": "Feature",
        "properties": {
          "area": "boston",
          "lines": [
            "red"
          ],
          "id": "savin-hill",
          "name": "Savin Hill",
          "childrens": ["Fields Corner", "JFK/UMass"]
        }
      },
      {
        "geometry": {
          "type": "Point",
          "coordinates": [
            -71.090437,
            42.335742
          ]
        },
        "type": "Feature",
        "properties": {
          "area": "boston",
          "lines": [
            "orange"
          ],
          "id": "ruggles",
          "name": "Ruggles",
          "childrens": ["Back Bay", "Roxbury Crossing"]
        }
      },
      {
        "geometry": {
          "type": "Point",
          "coordinates": [
            -71.078958,
            42.334958
          ]
        },
        "type": "Feature",
        "properties": {
          "area": "boston",
          "lines": [
            "sl4",
            "sl5",
            "silver"
          ],
          "id": "lenox-st",
          "name": "Lenox St"
        }
      },
      {
        "geometry": {
          "type": "Point",
          "coordinates": [
            -71.00085,
            42.20855
          ]
        },
        "type": "Feature",
        "properties": {
          "area": "braintree",
          "lines": [
            "red"
          ],
          "id": "braintree",
          "name": "Braintree",
          "childrens": ["Quincy Adams"]
        }
      },
      {
        "geometry": {
          "type": "Point",
          "coordinates": [
            -71.138705,
            42.338469
          ]
        },
        "type": "Feature",
        "properties": {
          "area": "brookline",
          "lines": [
            "green",
            "green-c"
          ],
          "id": "tappan-st",
          "name": "Tappan St"
        }
      },
      {
        "geometry": {
          "type": "Point",
          "coordinates": [
            -71.131197,
            42.350118
          ]
        },
        "type": "Feature",
        "properties": {
          "area": "boston",
          "lines": [
            "green",
            "green-b"
          ],
          "id": "harvard-ave",
          "name": "Harvard Ave"
        }
      },
      {
        "geometry": {
          "type": "Point",
          "coordinates": [
            -70.990986,
            42.413963
          ]
        },
        "type": "Feature",
        "properties": {
          "area": "boston",
          "lines": [
            "blue"
          ],
          "id": "wonderland",
          "name": "Wonderland",
          "childrens" : ["Revere Beach"] 
        }
      },
      {
        "geometry": {
          "type": "Point",
          "coordinates": [
            -71.06461,
            42.352337
          ]
        },
        "type": "Feature",
        "properties": {
          "area": "boston",
          "lines": [
            "sl5",
            "green",
            "green-e",
            "green-d",
            "silver",
            "green-c",
            "green-b"
          ],
          "id": "boylston",
          "name": "Boylston",
          "childrens": ["Arlington", "Park St"]
        }
      },
      {
        "geometry": {
          "type": "Point",
          "coordinates": [
            -71.111129,
            42.34487
          ]
        },
        "type": "Feature",
        "properties": {
          "area": "brookline",
          "lines": [
            "green",
            "green-c"
          ],
          "id": "hawes-st",
          "name": "Hawes St"
        }
      },
      {
        "geometry": {
          "type": "Point",
          "coordinates": [
            -71.021494,
            42.364422
          ]
        },
        "type": "Feature",
        "properties": {
          "area": "boston",
          "lines": [
            "silver",
            "sl1"
          ],
          "id": "terminal-a",
          "name": "Terminal A"
        }
      },
      {
        "geometry": {
          "type": "Point",
          "coordinates": [
            -71.060465,
            42.355453
          ]
        },
        "type": "Feature",
        "properties": {
          "area": "boston",
          "lines": [
            "orange",
            "red"
          ],
          "id": "downtown-crossing",
          "name": "Downtown Crossing",
          "childrens": ["State", "Chinatown", "South Station", "Park St"]
        }
      },
      {
        "geometry": {
          "type": "Point",
          "coordinates": [
            -71.077232,
            42.336378
          ]
        },
        "type": "Feature",
        "properties": {
          "area": "boston",
          "lines": [
            "sl4",
            "sl5",
            "silver"
          ],
          "id": "mass-ave",
          "name": "Mass Ave"
        }
      },
      {
        "geometry": {
          "type": "Point",
          "coordinates": [
            -71.057421,
            42.359065
          ]
        },
        "type": "Feature",
        "properties": {
          "area": "boston",
          "lines": [
            "blue",
            "orange"
          ],
          "id": "state",
          "name": "State",
          "childrens": ["Aquarium", "Government Center", "Haymarket", "Downtown Crossing"]
        }
      },
      {
        "geometry": {
          "type": "Point",
          "coordinates": [
            -71.065912,
            42.293712
          ]
        },
        "type": "Feature",
        "properties": {
          "area": "boston",
          "lines": [
            "red"
          ],
          "id": "shawmut",
          "name": "Shawmut",
          "childrens": ["Fields Corner", "Ashmont"]
        }
      },
      {
        "geometry": {
          "type": "Point",
          "coordinates": [
            -71.038422,
            42.368343
          ]
        },
        "type": "Feature",
        "properties": {
          "area": "boston",
          "lines": [
            "blue"
          ],
          "id": "maverick",
          "name": "Maverick",
          "childrens": ["Airport", "Aquarium"]
        }
      },
      {
        "geometry": {
          "type": "Point",
          "coordinates": [
            -71.070888,
            42.437134
          ]
        },
        "type": "Feature",
        "properties": {
          "area": "malden",
          "lines": [
            "orange"
          ],
          "id": "oak-grove",
          "name": "Oak Grove",
          "childrens": ["Malden"]
        }
      },
      {
        "geometry": {
          "type": "Point",
          "coordinates": [
            -71.113833,
            42.350759
          ]
        },
        "type": "Feature",
        "properties": {
          "area": "boston",
          "lines": [
            "green",
            "green-b"
          ],
          "id": "boston-university-west",
          "name": "Boston University West"
        }
      },
      {
        "geometry": {
          "type": "Point",
          "coordinates": [
            -71.157622,
            42.339455
          ]
        },
        "type": "Feature",
        "properties": {
          "area": "boston",
          "lines": [
            "green",
            "green-b"
          ],
          "id": "south-st",
          "name": "South St"
        }
      },
      {
        "geometry": {
          "type": "Point",
          "coordinates": [
            -71.059195,
            42.359868
          ]
        },
        "type": "Feature",
        "properties": {
          "area": "boston",
          "lines": [
            "blue",
            "green",
            "green-e",
            "green-d",
            "green-c",
            "green-b"
          ],
          "id": "government-center",
          "name": "Government Center",
          "childrens": ["Bowdoin", "Haymarket", "Park St", "State"]
        }
      },
      {
        "geometry": {
          "type": "Point",
          "coordinates": [
            -71.118917,
            42.373936
          ]
        },
        "type": "Feature",
        "properties": {
          "area": "cambridge",
          "lines": [
            "red"
          ],
          "id": "harvard",
          "name": "Harvard",
          "childrens": ["Porter Square", "Central Square"]
        }
      },
      {
        "geometry": {
          "type": "Point",
          "coordinates": [
            -71.146162,
            42.341483
          ]
        },
        "type": "Feature",
        "properties": {
          "area": "boston",
          "lines": [
            "green",
            "green-b"
          ],
          "id": "sutherland-rd",
          "name": "Sutherland Rd"
        }
      },
      {
        "geometry": {
          "type": "Point",
          "coordinates": [
            -71.051807,
            42.359634
          ]
        },
        "type": "Feature",
        "properties": {
          "area": "boston",
          "lines": [
            "blue"
          ],
          "id": "aquarium",
          "name": "Aquarium",
          "childrens": ["Maverick", "State"]
        }
      },
      {
        "geometry": {
          "type": "Point",
          "coordinates": [
            -71.125182,
            42.340946
          ]
        },
        "type": "Feature",
        "properties": {
          "area": "brookline",
          "lines": [
            "green",
            "green-c"
          ],
          "id": "summit-ave",
          "name": "Summit Ave"
        }
      },
      {
        "geometry": {
          "type": "Point",
          "coordinates": [
            -71.066041,
            42.343845
          ]
        },
        "type": "Feature",
        "properties": {
          "area": "boston",
          "lines": [
            "sl4",
            "sl5",
            "silver"
          ],
          "id": "east-berkeley-st",
          "name": "East Berkeley St"
        }
      },
      {
        "geometry": {
          "type": "Point",
          "coordinates": [
            -71.121547,
            42.35169
          ]
        },
        "type": "Feature",
        "properties": {
          "area": "boston",
          "lines": [
            "green",
            "green-b"
          ],
          "id": "babcock-st",
          "name": "Babcock St"
        }
      },
      {
        "geometry": {
          "type": "Point",
          "coordinates": [
            -71.131304,
            42.339474
          ]
        },
        "type": "Feature",
        "properties": {
          "area": "brookline",
          "lines": [
            "green",
            "green-c"
          ],
          "id": "fairbanks-st",
          "name": "Fairbanks St"
        }
      },
      {
        "geometry": {
          "type": "Point",
          "coordinates": [
            -71.064651,
            42.346443
          ]
        },
        "type": "Feature",
        "properties": {
          "area": "boston",
          "lines": [
            "sl4",
            "sl5",
            "silver"
          ],
          "id": "herald-st",
          "name": "Herald St"
        }
      },
      {
        "geometry": {
          "type": "Point",
          "coordinates": [
            -71.106804,
            42.34989
          ]
        },
        "type": "Feature",
        "properties": {
          "area": "boston",
          "lines": [
            "green",
            "green-b"
          ],
          "id": "boston-university-central",
          "name": "Boston University Central"
        }
      },
      {
        "geometry": {
          "type": "Point",
          "coordinates": [
            -71.029485,
            42.374542
          ]
        },
        "type": "Feature",
        "properties": {
          "area": "boston",
          "lines": [
            "blue"
          ],
          "id": "airport",
          "name": "Airport",
          "childrens": ["Wood Island", "Maverick"]
        }
      },
      {
        "geometry": {
          "type": "Point",
          "coordinates": [
            -71.074144,
            42.426678
          ]
        },
        "type": "Feature",
        "properties": {
          "area": "malden",
          "lines": [
            "orange"
          ],
          "id": "malden",
          "name": "Malden",
          "childrens": ["Oak Grove", "Wellington"]
        }
      },
      {
        "geometry": {
          "type": "Point",
          "coordinates": [
            -71.122527,
            42.39662
          ]
        },
        "type": "Feature",
        "properties": {
          "area": "somerville",
          "lines": [
            "red"
          ],
          "id": "davis",
          "name": "Davis",
          "childrens": ["Alewife", "Porter Square"]
        }
      },
      {
        "geometry": {
          "type": "Point",
          "coordinates": [
            -71.052545,
            42.321065
          ]
        },
        "type": "Feature",
        "properties": {
          "area": "boston",
          "lines": [
            "red"
          ],
          "id": "jfkumass",
          "name": "JFK/UMass",
          "childrens": ["Andrew", "North Quincy", "Savin Hill"]
        }
      },
      {
        "geometry": {
          "type": "Point",
          "coordinates": [
            -71.107125,
            42.310359
          ]
        },
        "type": "Feature",
        "properties": {
          "area": "boston",
          "lines": [
            "orange"
          ],
          "id": "green-street",
          "name": "Green Street",
          "childrens": ["Stony Brook", "Forest Hills"]
          
        }
      },
      {
        "geometry": {
          "type": "Point",
          "coordinates": [
            -71.019721,
            42.265972
          ]
        },
        "type": "Feature",
        "properties": {
          "area": "quincy",
          "lines": [
            "red"
          ],
          "id": "wollaston",
          "name": "Wollaston",
          "childrens": ["North Quincy", "Quincy Center"]
        }
      },
      {
        "geometry": {
          "type": "Point",
          "coordinates": [
            -71.077463,
            42.349991
          ]
        },
        "type": "Feature",
        "properties": {
          "area": "boston",
          "lines": [
            "green-e",
            "green-d",
            "green",
            "green-c",
            "green-b"
          ],
          "id": "copley",
          "name": "Copley"
        }
      },
      {
        "geometry": {
          "type": "Point",
          "coordinates": [
            -71.067666,
            42.366664
          ]
        },
        "type": "Feature",
        "properties": {
          "area": "boston",
          "lines": [
            "green-e",
            "green-d",
            "green"
          ],
          "id": "science-park",
          "name": "Science Park",
          "childrens": ["Lechmere", "North Station"]
        }
      },
      {
        "geometry": {
          "type": "Point",
          "coordinates": [
            -71.018588,
            42.361325
          ]
        },
        "type": "Feature",
        "properties": {
          "area": "boston",
          "lines": [
            "silver",
            "sl1"
          ],
          "id": "terminal-b-stop-1",
          "name": "Terminal B Stop 1"
        }
      },
      {
        "geometry": {
          "type": "Point",
          "coordinates": [
            -71.018820,
            42.364441
          ]
        },
        "type": "Feature",
        "properties": {
          "area": "boston",
          "lines": [
            "silver",
            "sl1"
          ],
          "id": "terminal-b-stop-2",
          "name": "Terminal B Stop 2"
        }
      },
      {
        "geometry": {
          "type": "Point",
          "coordinates": [
            -71.04206,
            42.349098
          ]
        },
        "type": "Feature",
        "properties": {
          "area": "boston",
          "lines": [
            "silver",
            "sl2",
            "sl1"
          ],
          "id": "world-trade-center",
          "name": "World Trade Center"
        }
      },
      {
        "geometry": {
          "type": "Point",
          "coordinates": [
            -71.061251,
            42.365551
          ]
        },
        "type": "Feature",
        "properties": {
          "area": "boston",
          "lines": [
            "green-e",
            "green-d",
            "green",
            "green-c",
            "orange"
          ],
          "id": "north-station",
          "name": "North Station",
          "childrens": ["Science Park", "Community College", "Haymarket"]
        }
      },
      {
        "geometry": {
          "type": "Point",
          "coordinates": [
            -71.083072,
            42.341762
          ]
        },
        "type": "Feature",
        "properties": {
          "area": "boston",
          "lines": [
            "orange"
          ],
          "id": "massachusetts-ave",
          "name": "Massachusetts Ave."
        }
      },
      {
        "geometry": {
          "type": "Point",
          "coordinates": [
            -71.073783,
            42.338754
          ]
        },
        "type": "Feature",
        "properties": {
          "area": "boston",
          "lines": [
            "sl4",
            "sl5",
            "silver"
          ],
          "id": "newton-st",
          "name": "Newton St"
        }
      },
      {
        "geometry": {
          "type": "Point",
          "coordinates": [
            -71.070817,
            42.351847
          ]
        },
        "type": "Feature",
        "properties": {
          "area": "boston",
          "lines": [
            "green-e",
            "green-d",
            "green",
            "green-c",
            "green-b"
          ],
          "id": "arlington",
          "name": "Arlington",
          "childrens": ["Copley", "Boylston"]
        }
      },
      {
        "geometry": {
          "type": "Point",
          "coordinates": [
            -71.004798,
            42.250879
          ]
        },
        "type": "Feature",
        "properties": {
          "area": "quincy",
          "lines": [
            "red"
          ],
          "id": "quincy-center",
          "name": "Quincy Center",
          "childrens":["Wollaston", "Quincy Adams"]
        }
      },
      {
        "geometry": {
          "type": "Point",
          "coordinates": [
            -71.103866,
            42.349569
          ]
        },
        "type": "Feature",
        "properties": {
          "area": "boston",
          "lines": [
            "green",
            "green-b"
          ],
          "id": "boston-university-east",
          "name": "Boston University East"
        }
      },
      {
        "geometry": {
          "type": "Point",
          "coordinates": [
            -70.992363,
            42.39745
          ]
        },
        "type": "Feature",
        "properties": {
          "area": "revere",
          "lines": [
            "blue"
          ],
          "id": "beachmont",
          "name": "Beachmont",
          "childrens": ["Suffolk Downs", "Revere Beach"]
        }
      },
      {
        "geometry": {
          "type": "Point",
          "coordinates": [
            -71.062202,
            42.356332
          ]
        },
        "type": "Feature",
        "properties": {
          "area": "boston",
          "lines": [
            "green",
            "green-c",
            "green-e",
            "green-d",
            "red",
            "green-b"
          ],
          "id": "park-st",
          "name": "Park St",
          "childrens": ["Boylston", "Charles/MGH", "Government Center", "Downtown Crossing"]
        }
      },
      {
        "geometry": {
          "type": "Point",
          "coordinates": [
            -71.140224,
            42.348366
          ]
        },
        "type": "Feature",
        "properties": {
          "area": "boston",
          "lines": [
            "green",
            "green-b"
          ],
          "id": "warren-st",
          "name": "Warren St"
        }
      },
      {
        "geometry": {
          "type": "Point",
          "coordinates": [
            -71.120888,
            42.342226
          ]
        },
        "type": "Feature",
        "properties": {
          "area": "brookline",
          "lines": [
            "green",
            "green-c"
          ],
          "id": "coolidge-corner",
          "name": "Coolidge Corner"
        }
      },
      {
        "geometry": {
          "type": "Point",
          "coordinates": [
            -71.107385,
            42.345947
          ]
        },
        "type": "Feature",
        "properties": {
          "area": "brookline",
          "lines": [
            "green",
            "green-c"
          ],
          "id": "saint-marys-st",
          "name": "Saint Mary's St"
        }
      },
      {
        "geometry": {
          "type": "Point",
          "coordinates": [
            -71.150459,
            42.340839
          ]
        },
        "type": "Feature",
        "properties": {
          "area": "boston",
          "lines": [
            "green",
            "green-b"
          ],
          "id": "chiswick-rd",
          "name": "Chiswick Rd"
        }
      },
      {
        "geometry": {
          "type": "Point",
          "coordinates": [
            -71.056979,
            42.329752
          ]
        },
        "type": "Feature",
        "properties": {
          "area": "boston",
          "lines": [
            "red"
          ],
          "id": "andrew",
          "name": "Andrew",
          "childrens": ["Broadway", "JFK/UMass"]
        }
      },
      {
        "geometry": {
          "type": "Point",
          "coordinates": [
            -71.145357,
            42.337049
          ]
        },
        "type": "Feature",
        "properties": {
          "area": "brookline",
          "lines": [
            "green",
            "green-c"
          ],
          "id": "englewood-ave",
          "name": "Englewood Ave"
        }
      },
      {
        "geometry": {
          "type": "Point",
          "coordinates": [
            -71.084266,
            42.329379
          ]
        },
        "type": "Feature",
        "properties": {
          "area": "boston",
          "lines": [
            "sl4",
            "sl5",
            "silver"
          ],
          "id": "dudley-square",
          "name": "Dudley Square"
        }
      },
      {
        "geometry": {
          "type": "Point",
          "coordinates": [
            -71.118783,
            42.351345
          ]
        },
        "type": "Feature",
        "properties": {
          "area": "boston",
          "lines": [
            "green",
            "green-b"
          ],
          "id": "pleasant-st",
          "name": "Pleasant St"
        }
      },
      {
        "geometry": {
          "type": "Point",
          "coordinates": [
            -71.062759,
            42.352529
          ]
        },
        "type": "Feature",
        "properties": {
          "area": "boston",
          "lines": [
            "orange",
            "sl4",
            "silver",
            "sl5"
          ],
          "id": "chinatown",
          "name": "Chinatown",
          "childrens": ["Downtown Crossing", "Tufts Medical Center"]
        }
      },
      {
        "geometry": {
          "type": "Point",
          "coordinates": [
            -71.134551,
            42.348542
          ]
        },
        "type": "Feature",
        "properties": {
          "area": "boston",
          "lines": [
            "green",
            "green-b"
          ],
          "id": "griggs-st",
          "name": "Griggs St"
        }
      },
      {
        "geometry": {
          "type": "Point",
          "coordinates": [
            -71.063877,
            42.349504
          ]
        },
        "type": "Feature",
        "properties": {
          "area": "boston",
          "lines": [
            "orange",
            "sl4",
            "silver",
            "sl5"
          ],
          "id": "tufts-medical-center",
          "name": "Tufts Medical Center",
          "childrens": ["Chinatown", "Back Bay"]
        }
      },
      {
        "geometry": {
          "type": "Point",
          "coordinates": [
            -71.086058,
            42.362427
          ]
        },
        "type": "Feature",
        "properties": {
          "area": "cambridge",
          "lines": [
            "red"
          ],
          "id": "kendallmit",
          "name": "Kendall/MIT",
          "childrens": ["Central Square", "Charles/MGH"]
        }
      },
      {
        "geometry": {
          "type": "Point",
          "coordinates": [
            -71.119159,
            42.388353
          ]
        },
        "type": "Feature",
        "properties": {
          "area": "cambridge",
          "lines": [
            "red"
          ],
          "id": "porter-square",
          "name": "Porter Square",
          "childrens": ["Davis", "Harvard"]
        }
      },
      {
        "geometry": {
          "type": "Point",
          "coordinates": [
            -71.075846,
            42.337386
          ]
        },
        "type": "Feature",
        "properties": {
          "area": "boston",
          "lines": [
            "sl4",
            "sl5",
            "silver"
          ],
          "id": "worcester-sq",
          "name": "Worcester Sq"
        }
      },
      {
        "geometry": {
          "type": "Point",
          "coordinates": [
            -71.076969,
            42.405202
          ]
        },
        "type": "Feature",
        "properties": {
          "area": "malden",
          "lines": [
            "orange"
          ],
          "id": "wellington",
          "name": "Wellington",
          "childrens": ["Malden", "Sullivan Square"]
        }
      },
      {
        "geometry": {
          "type": "Point",
          "coordinates": [
            -70.99256,
            42.408389
          ]
        },
        "type": "Feature",
        "properties": {
          "area": "revere",
          "lines": [
            "blue"
          ],
          "id": "revere-beach",
          "name": "Revere Beach",
          "childrens": ["Beachmont", "Wonderland"]
        }
      },
      {
        "geometry": {
          "type": "Point",
          "coordinates": [
            -70.997678,
            42.390232
          ]
        },
        "type": "Feature",
        "properties": {
          "area": "boston",
          "lines": [
            "blue"
          ],
          "id": "suffolk-downs",
          "name": "Suffolk Downs",
          "childrens": ["Beachmont","Orient Heights"]
        }
      },
      {
        "geometry": {
          "type": "Point",
          "coordinates": [
            -71.060465,
            42.355453
          ]
        },
        "type": "Feature",
        "properties": {
          "area": "boston",
          "lines": [
            "sl5",
            "silver"
          ],
          "id": "downtown-crossing-at-temple-place",
          "name": "Downtown Crossing at Temple Place"
        }
      },
      {
        "geometry": {
          "type": "Point",
          "coordinates": [
            -71.061516,
            42.299992
          ]
        },
        "type": "Feature",
        "properties": {
          "area": "boston",
          "lines": [
            "red"
          ],
          "id": "fields-corner",
          "name": "Fields Corner",
          "childrens": ["Savin Hill", "Shawmut"]
        }
      },
      {
        "geometry": {
          "type": "Point",
          "coordinates": [
            -71.055428,
            42.352573
          ]
        },
        "type": "Feature",
        "properties": {
          "area": "boston",
          "lines": [
            "sl4",
            "sl2",
            "silver",
            "red",
            "sl1"
          ],
          "id": "south-station",
          "name": "South Station",
          "childrens": ["Downtown Crossing", "Broadway"]
        }
      },
      {
        "geometry": {
          "type": "Point",
          "coordinates": [
            -71.104021,
            42.317251
          ]
        },
        "type": "Feature",
        "properties": {
          "area": "boston",
          "lines": [
            "orange"
          ],
          "id": "stony-brook",
          "name": "Stony Brook",
          "childrens": ["Green Street", "Jackson Square"]
        }
      },
      {
        "geometry": {
          "type": "Point",
          "coordinates": [
            -71.004941,
            42.386769
          ]
        },
        "type": "Feature",
        "properties": {
          "area": "boston",
          "lines": [
            "blue"
          ],
          "id": "orient-heights",
          "name": "Orient Heights",
          "childrens": ["Suffolk Downs", "Wood Island"]
        }
      },
      {
        "geometry": {
          "type": "Point",
          "coordinates": [
            -71.0201340,
            42.3694570
          ]
        },
        "type": "Feature",
        "properties": {
          "area": "boston",
          "lines": [
            "silver",
            "sl1"
          ],
          "id": "terminal-e",
          "name": "Terminal E"
        }
      },
      {
        "geometry": {
          "type": "Point",
          "coordinates": [
            -71.137888,
            42.348468
          ]
        },
        "type": "Feature",
        "properties": {
          "area": "boston",
          "lines": [
            "green",
            "green-b"
          ],
          "id": "allston-st",
          "name": "Allston St"
        }
      },
      {
        "geometry": {
          "type": "Point",
          "coordinates": [
            -71.095555,
            42.331388
          ]
        },
        "type": "Feature",
        "properties": {
          "area": "boston",
          "lines": [
            "orange"
          ],
          "id": "roxbury-crossing",
          "name": "Roxbury Crossing",
          "childrens": ["Jackson Square", "Ruggles"]
        }
      },
      {
        "geometry": {
          "type": "Point",
          "coordinates": [
            -71.02724,
            42.344105
          ]
        },
        "type": "Feature",
        "properties": {
          "area": "boston",
          "lines": [
            "silver",
            "sl2"
          ],
          "id": "88-black-falcon-ave",
          "name": "88 Black Falcon Ave."
        }
      },
      {
        "geometry": {
          "type": "Point",
          "coordinates": [
            -71.103474,
            42.365326
          ]
        },
        "type": "Feature",
        "properties": {
          "area": "cambridge",
          "lines": [
            "red"
          ],
          "id": "central-square",
          "name": "Central Square",
          "childrens": ["Harvard", "Kendall/MIT"]
        }
      },
      {
        "geometry": {
          "type": "Point",
          "coordinates": [
            -71.104156,
            42.345347
          ]
        },
        "type": "Feature",
        "properties": {
          "area": "boston",
          "lines": [
            "green-d",
            "green"
          ],
          "id": "fenway",
          "name": "Fenway"
        }
      },
      {
        "geometry": {
          "type": "Point",
          "coordinates": [
            -71.194444,
            42.328354
          ]
        },
        "type": "Feature",
        "properties": {
          "area": "newton",
          "lines": [
            "green-d",
            "green"
          ],
          "id": "newton-centre",
          "name": "Newton Centre"
        }
      },
      {
        "geometry": {
          "type": "Point",
          "coordinates": [
            -71.031036,
            42.344626
          ]
        },
        "type": "Feature",
        "properties": {
          "area": "boston",
          "lines": [
            "silver",
            "sl2"
          ],
          "id": "21-dry-dock-ave",
          "name": "21 Dry Dock Ave."
        }
      }
  ]